[
  {
    "id": "6284659331878541581",
    "title": "瑞幸咖啡(广西师范大学育才校区店)",
    "address": "广西壮族自治区桂林市七星区西苑餐厅入口01铺",
    "tel": "",
    "category": "娱乐休闲:咖啡厅",
    "type": 0,
    "location": {
      "lat": 25.267178,
      "lng": 110.323766
    },
    "_distance": 1043.79,
    "ad_info": {
      "adcode": 450305,
      "province": "广西壮族自治区",
      "city": "桂林市",
      "district": "七星区"
    }
  },
  {
    "id": "16685538345899913735",
    "title": "瑞幸咖啡(桂林六合路店)",
    "address": "广西壮族自治区桂林市七星区六合路269号7号铺面",
    "tel": "",
    "category": "娱乐休闲:咖啡厅",
    "type": 0,
    "location": {
      "lat": 25.278879,
      "lng": 110.322738
    },
    "_distance": 1220.99,
    "ad_info": {
      "adcode": 450305,
      "province": "广西壮族自治区",
      "city": "桂林市",
      "district": "七星区"
    }
  },
  {
    "id": "4635757271075528369",
    "title": "瑞幸咖啡(桂林客世界店)",
    "address": "广西壮族自治区桂林市七星区漓江路19号客世界商业文化广场一层1038号商铺",
    "tel": "",
    "category": "娱乐休闲:咖啡厅",
    "type": 0,
    "location": {
      "lat": 25.259629,
      "lng": 110.311411
    },
    "_distance": 1298.92,
    "ad_info": {
      "adcode": 450305,
      "province": "广西壮族自治区",
      "city": "桂林市",
      "district": "七星区"
    }
  },
  {
    "id": "8774312435397010784",
    "title": "瑞幸咖啡(理工大学屏风校区店)",
    "address": "广西壮族自治区桂林市七星区建干路41号福隆新城1-9,1-13,1-14号商铺",
    "tel": "4000100100",
    "category": "娱乐休闲:咖啡厅",
    "type": 0,
    "location": {
      "lat": 25.282719,
      "lng": 110.314248
    },
    "_distance": 1304.54,
    "ad_info": {
      "adcode": 450305,
      "province": "广西壮族自治区",
      "city": "桂林市",
      "district": "七星区"
    }
  },
  {
    "id": "10337514906759357181",
    "title": "瑞幸咖啡(南城百货国展店)",
    "address": "广西壮族自治区桂林市七星区漓江路26号南城百货1032号商铺",
    "tel": "",
    "category": "娱乐休闲:咖啡厅",
    "type": 0,
    "location": {
      "lat": 25.260476,
      "lng": 110.307224
    },
    "_distance": 1371.38,
    "ad_info": {
      "adcode": 450305,
      "province": "广西壮族自治区",
      "city": "桂林市",
      "district": "七星区"
    }
  },
  {
    "id": "9016195754064893280",
    "title": "瑞幸咖啡(桂林一中店)",
    "address": "广西壮族自治区桂林市七星区漓东街道骖鸾路4号1-5层综合办公楼第1层",
    "tel": "",
    "category": "娱乐休闲:咖啡厅",
    "type": 0,
    "location": {
      "lat": 25.257694,
      "lng": 110.317723
    },
    "_distance": 1520.8,
    "ad_info": {
      "adcode": 450305,
      "province": "广西壮族自治区",
      "city": "桂林市",
      "district": "七星区"
    }
  },
  {
    "id": "392934511001498838",
    "title": "瑞幸咖啡(桂林依仁路店)",
    "address": "广西壮族自治区桂林市秀峰区秀峰街道人民街漓滨路7号连接楼地层铺面",
    "tel": "4000100100",
    "category": "娱乐休闲:咖啡厅",
    "type": 0,
    "location": {
      "lat": 25.274989,
      "lng": 110.299538
    },
    "_distance": 1551,
    "ad_info": {
      "adcode": 450302,
      "province": "广西壮族自治区",
      "city": "桂林市",
      "district": "秀峰区"
    }
  },
  {
    "id": "2138813676470572404",
    "title": "瑞幸咖啡(桂林东西巷店)",
    "address": "广西壮族自治区桂林市秀峰区解放东路14号1-1",
    "tel": "4000100100",
    "category": "娱乐休闲:咖啡厅",
    "type": 0,
    "location": {
      "lat": 25.277998,
      "lng": 110.299574
    },
    "_distance": 1674.49,
    "ad_info": {
      "adcode": 450302,
      "province": "广西壮族自治区",
      "city": "桂林市",
      "district": "秀峰区"
    }
  },
  {
    "id": "4172785516194601780",
    "title": "瑞幸咖啡(桂林秀峰王城商厦店)",
    "address": "广西壮族自治区桂林市秀峰区解放东路11号王城商厦一楼卖场",
    "tel": "",
    "category": "娱乐休闲:咖啡厅",
    "type": 0,
    "location": {
      "lat": 25.277701,
      "lng": 110.298855
    },
    "_distance": 1724.13,
    "ad_info": {
      "adcode": 450302,
      "province": "广西壮族自治区",
      "city": "桂林市",
      "district": "秀峰区"
    }
  },
  {
    "id": "1902176000166755090",
    "title": "瑞幸咖啡(桂林文化宫店)",
    "address": "广西壮族自治区桂林市秀峰区依仁路38号文化宫名品街3号楼3-1-2号门面",
    "tel": "",
    "category": "娱乐休闲:咖啡厅",
    "type": 0,
    "location": {
      "lat": 25.277125,
      "lng": 110.296377
    },
    "_distance": 1928.57,
    "ad_info": {
      "adcode": 450302,
      "province": "广西壮族自治区",
      "city": "桂林市",
      "district": "秀峰区"
    }
  }
]
